[
  {
    "originalName": "Quarantine Station (Portsea)",
    "fullStopName": "Quarantine Station/Danson Drive",
    "stopGTFSID": "12000001",
    "location": {
      "type": "Point",
      "coordinates": [144.693232, -38.313942]
    },
    "stopNumber": null,
    "mode": "bus",
    "suburb": "Portsea"
  },
  {
    "originalName": "Gunner's Cottage (Portsea)",
    "fullStopName": "Gunner's Cottage/Defence Drive",
    "stopGTFSID": "12000002",
    "location": {
      "type": "Point",
      "coordinates": [144.679690, -38.309567]
    },
    "stopNumber": null,
    "mode": "bus",
    "suburb": "Portsea"
  },
  {
    "originalName": "Cheviot Hill (Portsea)",
    "fullStopName": "Cheviot Hill/Defence Road",
    "stopGTFSID": "12000003",
    "location": {
      "type": "Point",
      "coordinates": [144.667915, -38.309541]
    },
    "stopNumber": null,
    "mode": "bus",
    "suburb": "Portsea"
  },
  {
    "originalName": "Fort Pearce (Portsea)",
    "fullStopName": "Fort Pearce/Defence Road",
    "stopGTFSID": "12000004",
    "location": {
      "type": "Point",
      "coordinates": [144.658897, -38.306862]
    },
    "stopNumber": null,
    "mode": "bus",
    "suburb": "Portsea"
  },
  {
    "originalName": "Fort Nepean (Portsea)",
    "fullStopName": "Fort Nepean/Defence Road",
    "stopGTFSID": "12000005",
    "location": {
      "type": "Point",
      "coordinates": [144.652277, -38.303411]
    },
    "stopNumber": null,
    "mode": "bus",
    "suburb": "Portsea"
  },
  {
    "originalName": "Monash University (Clayton)",
    "fullStopName": "Monash University Bus Loop",
    "stopGTFSID": "19806",
    "location": {
      "type": "Point",
      "coordinates": [145.131487777162, -37.9139887571069]
    },
    "stopNumber": null,
    "mode": "bus",
    "suburb": "Clayton"
  },
  {
    "originalName": "Monash University (Clayton)",
    "fullStopName": "Monash University Bus Loop",
    "stopGTFSID": "19807",
    "location": {
      "type": "Point",
      "coordinates": [145.131526903253, -37.9137911178375]
    },
    "stopNumber": null,
    "mode": "bus",
    "suburb": "Clayton"
  },
  {
    "originalName": "Monash University (Clayton)",
    "fullStopName": "Monash University Bus Loop",
    "stopGTFSID": "19808",
    "location": {
      "type": "Point",
      "coordinates": [145.131565801189, -37.9136024867716]
    },
    "stopNumber": null,
    "mode": "bus",
    "suburb": "Clayton"
  },
  {
    "originalName": "Monash University (Caulfield)",
    "fullStopName": "Monash University/Dandenong Road",
    "stopGTFSID": "12000006",
    "location": {
      "type": "Point",
      "coordinates": [145.044287, -37.876056]
    },
    "stopNumber": null,
    "mode": "bus",
    "suburb": "Caulfield"
  },
  {
    "originalName": "Monash University (Frankston)",
    "fullStopName": "Monash University/McMahons Rd",
    "stopGTFSID": "48017",
    "location": {
      "type": "Point",
      "coordinates": [145.134813816484, -38.1518599835155]
    },
    "stopNumber": null,
    "mode": "bus",
    "suburb": "Frankston"
  },
  {
    "originalName": "Latrobe University - Stop 1",
    "fullStopName": "Latrobe University ",
    "stopGTFSID": "12000011",
    "location": {
      "type": "Point",
      "coordinates": [145.0443159, -37.7171437]
    },
    "stopNumber": null,
    "mode": "bus",
    "suburb": "Bundoora"
  },
  {
    "originalName": "Latrobe University - Stop 2",
    "fullStopName": "La Trobe University Thomas Cherry Building",
    "stopGTFSID": "12000012",
    "location": {
      "type": "Point",
      "coordinates": [145.0464078, -37.7207590]
    },
    "stopNumber": null,
    "mode": "bus",
    "suburb": "Bundoora"
  },
  {
    "originalName": "Latrobe University - Stop 3",
    "fullStopName": "La Trobe University Chisholm College",
    "stopGTFSID": "12000013",
    "location": {
      "type": "Point",
      "coordinates": [145.0509644, -37.7238636]
    },
    "stopNumber": null,
    "mode": "bus",
    "suburb": "Bundoora"
  },
  {
    "originalName": "Latrobe University - Stop 4",
    "fullStopName": "La Trobe University Latrobe Apartment",
    "stopGTFSID": "12000014",
    "location": {
      "type": "Point",
      "coordinates": [145.0537094, -37.7213576]
    },
    "stopNumber": null,
    "mode": "bus",
    "suburb": "Bundoora"
  },
  {
    "originalName": "Polaris Town Centre - Stop 5",
    "fullStopName": "Polaris Town Centre",
    "stopGTFSID": "12000015",
    "location": {
      "type": "Point",
      "coordinates": [145.0482326, -37.7135725]
    },
    "stopNumber": null,
    "mode": "bus",
    "suburb": "Bundoora"
  }
]
